{"type":"FeatureCollection", "features": [
{"type":"Feature","geometry":{"type":"Point","coordinates":[-116.60886900027305,32.604782400432555]},"properties":{"OBJECTID":1,"Permanent_":"{BF74F8B0-71BF-4A46-ADAB-1F324B722483}","Source_Fea":"9999999999","Source_Dat":"{CC44F99C-6658-4584-B606-926E498D5C82}","Source_D_1":"TNMC VWE DB Build - Vol Update","Source_Ori":"U.S. Geological Survey","Data_Secur":5,"Distributi":"E4","LoadDate":"2016-08-12T00:00:00.000Z","FType":740,"FCode":74026,"Name":"California Department of Forestry and Fire Protection Station 31 Potrero","IsLandmark":0,"PointLocat":4,"AdminType":0,"AddressBui":"","Address":"25130 State Highway 94","City":"Potrero","State":"CA","Zipcode":"91963","GNIS_ID":"2664774","Foot_ID":"","Complex_ID":""}},
{"type":"Feature","geometry":{"type":"Point","coordinates":[-116.52332999623917,32.5916700160779]},"properties":{"OBJECTID":2,"Permanent_":"7779f5e6-90d7-4686-ae56-f7c0a3b7df3a","Source_Fea":"CA028423","Source_Dat":"b934057e-3281-4833-a7ac-ceb9cb12a7c8","Source_D_1":"HAZUS Database / MH Version 1.1, January 2005","Source_Ori":"FEMA","Data_Secur":5,"Distributi":"E4","LoadDate":"2005-10-19T00:00:00.000Z","FType":810,"FCode":81018,"Name":"STATE ROUTE 94","IsLandmark":0,"PointLocat":1,"AdminType":0,"AddressBui":"","Address":"","City":"","State":"","Zipcode":"","GNIS_ID":"","Foot_ID":"","Complex_ID":""}},
{"type":"Feature","geometry":{"type":"Point","coordinates":[-116.61340000026604,32.610220000424135]},"properties":{"OBJECTID":3,"Permanent_":"{2DC3AAAD-4874-4DCA-9420-108FEDA6F924}","Source_Fea":"062610005260","Source_Dat":"{CC19ABE0-361F-4846-B852-AA57C04368C8}","Source_D_1":"NSD TNMC VWE Database Build - Reviewed Schools","Source_Ori":"Oak Ridge National Laboratory, Geographic Information Sciences and Technology Group","Data_Secur":5,"Distributi":"E4","LoadDate":"2011-12-20T00:00:00.000Z","FType":730,"FCode":73005,"Name":"MOUNTAIN MEADOW HIGH","IsLandmark":2,"PointLocat":1,"AdminType":0,"AddressBui":"","Address":"24876 POTRERO VALLEY RD.","City":"Potrero","State":"CA","Zipcode":"91963","GNIS_ID":"","Foot_ID":"","Complex_ID":""}},
{"type":"Feature","geometry":{"type":"Point","coordinates":[-116.62057430025487,32.607154100428886]},"properties":{"OBJECTID":4,"Permanent_":"{AAF0A80A-727C-42CB-B381-C9B2E133ED37}","Source_Fea":"9999999999","Source_Dat":"{CC44F99C-6658-4584-B606-926E498D5C82}","Source_D_1":"TNMC VWE DB Build - Vol Update","Source_Ori":"U.S. Geological Survey","Data_Secur":5,"Distributi":"E4","LoadDate":"2016-08-12T00:00:00.000Z","FType":740,"FCode":74026,"Name":"CAL FIRE Potrero Fire Station 39","IsLandmark":0,"PointLocat":1,"AdminType":0,"AddressBui":"","Address":"24550 State Highway 94","City":"Potrero","State":"CA","Zipcode":"91963","GNIS_ID":"2664762","Foot_ID":"","Complex_ID":""}},
{"type":"Feature","geometry":{"type":"Point","coordinates":[-116.61025090235427,32.60491232543234]},"properties":{"OBJECTID":5,"Permanent_":"{53278FEF-AA80-4D28-9476-FA49F6D70521}","Source_Fea":"","Source_Dat":"{C1994035-D226-4273-8F7F-C95B5AF3FFE9}","Source_D_1":"CA Post Offices from Census Bureau processed with GNIS conflation 02/01/2018","Source_Ori":"U.S. Census Bureau","Data_Secur":5,"Distributi":"E4","LoadDate":"2018-02-07T00:00:00.000Z","FType":780,"FCode":78006,"Name":"Potrero Post Office","IsLandmark":0,"PointLocat":1,"AdminType":0,"AddressBui":"","Address":"25050 State Highway 94","City":"Potrero","State":"CA","Zipcode":"91963","GNIS_ID":"2769469","Foot_ID":"","Complex_ID":""}},
{"type":"Feature","geometry":{"type":"Point","coordinates":[-116.61268200026717,32.610276283757344]},"properties":{"OBJECTID":6,"Permanent_":"{5D0B28A9-261F-4266-AA29-3B1936FCFF1E}","Source_Fea":"062610003909","Source_Dat":"{092B06A5-744D-461B-BB91-876E463350D0}","Source_D_1":"TNMC VWE DB Build - Vol Update Schools","Source_Ori":"Oak Ridge National Laboratory, Geographic Information Sciences and Technology Group","Data_Secur":5,"Distributi":"E4","LoadDate":"2016-08-12T00:00:00.000Z","FType":730,"FCode":73003,"Name":"POTRERO ELEMENTARY","IsLandmark":2,"PointLocat":1,"AdminType":0,"AddressBui":"","Address":"24875 POTRERO VALLEY RD.","City":"Potrero","State":"CA","Zipcode":"91963","GNIS_ID":"","Foot_ID":"","Complex_ID":""}},
{"type":"Feature","geometry":{"type":"Point","coordinates":[-116.55499999619002,32.59667001607016]},"properties":{"OBJECTID":7,"Permanent_":"7d344ec6-1d8c-452d-818f-a2f34160daa8","Source_Fea":"CA029543","Source_Dat":"b934057e-3281-4833-a7ac-ceb9cb12a7c8","Source_D_1":"HAZUS Database / MH Version 1.1, January 2005","Source_Ori":"FEMA","Data_Secur":5,"Distributi":"E4","LoadDate":"2005-10-19T00:00:00.000Z","FType":810,"FCode":81018,"Name":"STATE ROUTE 94","IsLandmark":0,"PointLocat":1,"AdminType":0,"AddressBui":"","Address":"","City":"","State":"","Zipcode":"","GNIS_ID":"","Foot_ID":"","Complex_ID":""}},
{"type":"Feature","geometry":{"type":"Point","coordinates":[-116.61350520130753,32.61104372438115]},"properties":{"OBJECTID":8,"Permanent_":"{02561B02-F96A-4193-B2DC-5173980E5139}","Source_Fea":"","Source_Dat":"{CC44F99C-6658-4584-B606-926E498D5C82}","Source_D_1":"TNMC VWE DB Build - Vol Update","Source_Ori":"U.S. Geological Survey","Data_Secur":5,"Distributi":"E4","LoadDate":"2015-11-02T00:00:00.000Z","FType":820,"FCode":82010,"Name":"Potrero Cemetery","IsLandmark":2,"PointLocat":1,"AdminType":0,"AddressBui":"","Address":"24878 Potrero Valley Road","City":"Potrero","State":"CA","Zipcode":"91963","GNIS_ID":"2773323","Foot_ID":"","Complex_ID":""}}
]}