{"type":"FeatureCollection", "features": [
{"type":"Feature","geometry":{"type":"Point","coordinates":[-116.46983927548888,32.601953361895255]},"properties":{"OBJECTID":1,"Permanent_":"{A7B2BF19-B386-41D6-8F2D-652498ABB816}","Source_Fea":"069103012115","Source_Dat":"{092B06A5-744D-461B-BB91-876E463350D0}","Source_D_1":"TNMC VWE DB Build - Vol Update Schools","Source_Ori":"Oak Ridge National Laboratory, Geographic Information Sciences and Technology Group","Data_Secur":5,"Distributi":"E4","LoadDate":"2016-08-12T00:00:00.000Z","FType":730,"FCode":73002,"Name":"MOUNTAIN REGION COURT","IsLandmark":2,"PointLocat":1,"AdminType":0,"AddressBui":"","Address":"957 FORREST GATE RD.","City":"Campo","State":"CA","Zipcode":"91906","GNIS_ID":"","Foot_ID":"","Complex_ID":""}},
{"type":"Feature","geometry":{"type":"Point","coordinates":[-116.47087214632057,32.607282445220335]},"properties":{"OBJECTID":2,"Permanent_":"{F2C24ABA-C434-4A53-8856-1C4B08F1F72B}","Source_Fea":"","Source_Dat":"{C1994035-D226-4273-8F7F-C95B5AF3FFE9}","Source_D_1":"CA Post Offices from Census Bureau processed with GNIS conflation 02/01/2018","Source_Ori":"U.S. Census Bureau","Data_Secur":5,"Distributi":"E4","LoadDate":"2018-02-07T00:00:00.000Z","FType":780,"FCode":78006,"Name":"Campo Post Office","IsLandmark":2,"PointLocat":1,"AdminType":0,"AddressBui":"","Address":"951 Jeb Stuart Road","City":"Campo","State":"CA","Zipcode":"91906","GNIS_ID":"2769536","Foot_ID":"","Complex_ID":""}},
{"type":"Feature","geometry":{"type":"Point","coordinates":[-116.46943654528116,32.608115932719045]},"properties":{"OBJECTID":3,"Permanent_":"dac81e73-d618-4e35-b9c4-733dd6f52f19","Source_Fea":"CA000569","Source_Dat":"{CC44F99C-6658-4584-B606-926E498D5C82}","Source_D_1":"TNMC VWE DB Build - Vol Update","Source_Ori":"U.S. Geological Survey","Data_Secur":5,"Distributi":"E4","LoadDate":"2015-10-27T00:00:00.000Z","FType":740,"FCode":74034,"Name":"San Diego County Sheriff's Office Campo Substation","IsLandmark":0,"PointLocat":1,"AdminType":5,"AddressBui":"","Address":"378 Sheridan Road","City":"Campo","State":"CA","Zipcode":"91906","GNIS_ID":"2756285","Foot_ID":"","Complex_ID":""}},
{"type":"Feature","geometry":{"type":"Point","coordinates":[-116.4751316577723,32.62490747748467]},"properties":{"OBJECTID":4,"Permanent_":"{4C99D636-FB76-4B93-98B8-8E895CD9DA10}","Source_Fea":"062610002661","Source_Dat":"c3e84d44-ff65-4f24-92ea-be71a63a88a3","Source_D_1":"730 TNMC Update 6/12/2017","Source_Ori":"Oak Ridge National Laboratory, Geographic Information Sciences and Technology Group","Data_Secur":5,"Distributi":"E4","LoadDate":"2017-06-12T00:00:00.000Z","FType":730,"FCode":73005,"Name":"Campo High Continuation School","IsLandmark":2,"PointLocat":1,"AdminType":0,"AddressBui":"","Address":"31360 Highway 94","City":"Campo","State":"CA","Zipcode":"91906","GNIS_ID":"","Foot_ID":"","Complex_ID":""}},
{"type":"Feature","geometry":{"type":"Point","coordinates":[-116.47499999631418,32.611670016046844]},"properties":{"OBJECTID":5,"Permanent_":"b8e3b40d-0953-4c98-97a2-22c6325fc638","Source_Fea":"CA028424","Source_Dat":"b934057e-3281-4833-a7ac-ceb9cb12a7c8","Source_D_1":"HAZUS Database / MH Version 1.1, January 2005","Source_Ori":"FEMA","Data_Secur":5,"Distributi":"E4","LoadDate":"2005-10-19T00:00:00.000Z","FType":810,"FCode":81018,"Name":"STATE ROUTE 94","IsLandmark":0,"PointLocat":1,"AdminType":0,"AddressBui":"","Address":"","City":"","State":"","Zipcode":"","GNIS_ID":"","Foot_ID":"","Complex_ID":""}},
{"type":"Feature","geometry":{"type":"Point","coordinates":[-116.471683000486,32.60732630042861]},"properties":{"OBJECTID":6,"Permanent_":"{335FFE38-A64D-44F1-86DC-FB55C39746DF}","Source_Fea":"9999999999","Source_Dat":"{CC44F99C-6658-4584-B606-926E498D5C82}","Source_D_1":"TNMC VWE DB Build - Vol Update","Source_Ori":"U.S. Geological Survey","Data_Secur":5,"Distributi":"E4","LoadDate":"2016-08-12T00:00:00.000Z","FType":740,"FCode":74026,"Name":"San Diego County Fire Authority Campo Station","IsLandmark":0,"PointLocat":4,"AdminType":0,"AddressBui":"","Address":"437 Jeb Stuart Road","City":"Campo","State":"CA","Zipcode":"91906","GNIS_ID":"2664894","Foot_ID":"","Complex_ID":""}}
]}