{"type":"FeatureCollection", "features": [
{"type":"Feature","geometry":{"type":"Point","coordinates":[-116.43057259950814,32.714222400262656,0,-1.7976931348623157e+308]},"properties":{"OBJECTID":1,"GAZ_ID":271943,"GAZ_NAME":"La Posta Valley","GAZ_FEATUR":"Valley","FEATURE_CO":15050,"GAZ_ELEVAT":1038,"DATELASTED":"1899-11-30T00:00:00.000Z","ISCONFLATE":1,"GAZ_CELLID":6886,"POPULATION":0,"SEQUENCE":1,"LOADDATE":"2018-08-01T00:00:00.000Z"}},
{"type":"Feature","geometry":{"type":"Point","coordinates":[-116.40501709954782,32.68450190030882,0,-1.7976931348623157e+308]},"properties":{"OBJECTID":2,"GAZ_ID":272483,"GAZ_NAME":"Miller Valley","GAZ_FEATUR":"Valley","FEATURE_CO":15050,"GAZ_ELEVAT":974,"DATELASTED":"1899-11-30T00:00:00.000Z","ISCONFLATE":1,"GAZ_CELLID":6886,"POPULATION":0,"SEQUENCE":1,"LOADDATE":"2018-08-01T00:00:00.000Z"}},
{"type":"Feature","geometry":{"type":"Point","coordinates":[-116.47112760048685,32.62894830039505,0,-1.7976931348623157e+308]},"properties":{"OBJECTID":3,"GAZ_ID":270172,"GAZ_NAME":"Cameron Corners","GAZ_FEATUR":"Populated Place","FEATURE_CO":99904,"GAZ_ELEVAT":799,"DATELASTED":"1899-11-30T00:00:00.000Z","ISCONFLATE":1,"GAZ_CELLID":6886,"POPULATION":0,"SEQUENCE":0,"LOADDATE":"2018-08-01T00:00:00.000Z"}},
{"type":"Feature","geometry":{"type":"Point","coordinates":[-116.46057210050327,32.62922620039461,0,-1.7976931348623157e+308]},"properties":{"OBJECTID":4,"GAZ_ID":1660312,"GAZ_NAME":"Barrett","GAZ_FEATUR":"Populated Place","FEATURE_CO":99904,"GAZ_ELEVAT":806,"DATELASTED":"2016-12-13T00:00:00.000Z","ISCONFLATE":1,"GAZ_CELLID":6886,"POPULATION":0,"SEQUENCE":0,"LOADDATE":"2018-08-01T00:00:00.000Z"}},
{"type":"Feature","geometry":{"type":"Point","coordinates":[-116.41751689952844,32.64172600037523,0,-1.7976931348623157e+308]},"properties":{"OBJECTID":5,"GAZ_ID":270243,"GAZ_NAME":"Campo Valley","GAZ_FEATUR":"Valley","FEATURE_CO":15050,"GAZ_ELEVAT":778,"DATELASTED":"1899-11-30T00:00:00.000Z","ISCONFLATE":1,"GAZ_CELLID":6886,"POPULATION":0,"SEQUENCE":2,"LOADDATE":"2018-08-01T00:00:00.000Z"}},
{"type":"Feature","geometry":{"type":"Point","coordinates":[-116.41279469953577,32.67089130032997,0,-1.7976931348623157e+308]},"properties":{"OBJECTID":6,"GAZ_ID":270508,"GAZ_NAME":"Clover Flat","GAZ_FEATUR":"Flat","FEATURE_CO":15028,"GAZ_ELEVAT":905,"DATELASTED":"2017-01-03T00:00:00.000Z","ISCONFLATE":1,"GAZ_CELLID":6886,"POPULATION":0,"SEQUENCE":0,"LOADDATE":"2018-08-01T00:00:00.000Z"}},
{"type":"Feature","geometry":{"type":"Point","coordinates":[-116.43557219950037,32.62672660039851,0,-1.7976931348623157e+308]},"properties":{"OBJECTID":7,"GAZ_ID":273757,"GAZ_NAME":"Smith Canyon","GAZ_FEATUR":"Valley","FEATURE_CO":15050,"GAZ_ELEVAT":823,"DATELASTED":"1899-11-30T00:00:00.000Z","ISCONFLATE":1,"GAZ_CELLID":6886,"POPULATION":0,"SEQUENCE":1,"LOADDATE":"2018-08-01T00:00:00.000Z"}},
{"type":"Feature","geometry":{"type":"Point","coordinates":[-116.47445961402337,32.639454183712076,0,-1.7976931348623157e+308]},"properties":{"OBJECTID":8,"GAZ_ID":2582962,"GAZ_NAME":"Campo","GAZ_FEATUR":"Census","FEATURE_CO":61501,"GAZ_ELEVAT":857,"DATELASTED":"2018-07-06T00:00:00.000Z","ISCONFLATE":3,"GAZ_CELLID":6886,"POPULATION":2684,"SEQUENCE":0,"LOADDATE":"2018-08-01T00:00:00.000Z"}},
{"type":"Feature","geometry":{"type":"Point","coordinates":[-116.41446139953314,32.662002800343714,0,-1.7976931348623157e+308]},"properties":{"OBJECTID":9,"GAZ_ID":1660498,"GAZ_NAME":"Clover Flat","GAZ_FEATUR":"Populated Place","FEATURE_CO":99904,"GAZ_ELEVAT":909,"DATELASTED":"2017-01-03T00:00:00.000Z","ISCONFLATE":1,"GAZ_CELLID":6886,"POPULATION":0,"SEQUENCE":0,"LOADDATE":"2018-08-01T00:00:00.000Z"}},
{"type":"Feature","geometry":{"type":"Point","coordinates":[-116.48001670047307,32.70005570028468,0,-1.7976931348623157e+308]},"properties":{"OBJECTID":10,"GAZ_ID":274091,"GAZ_NAME":"The Narrows","GAZ_FEATUR":"Gap","FEATURE_CO":15030,"GAZ_ELEVAT":966,"DATELASTED":"2017-02-01T00:00:00.000Z","ISCONFLATE":1,"GAZ_CELLID":6886,"POPULATION":0,"SEQUENCE":0,"LOADDATE":"2018-08-01T00:00:00.000Z"}},
{"type":"Feature","geometry":{"type":"Point","coordinates":[-116.4547393005123,32.744220600216124,0,-1.7976931348623157e+308]},"properties":{"OBJECTID":11,"GAZ_ID":271957,"GAZ_NAME":"Laguna Mountains","GAZ_FEATUR":"Range","FEATURE_CO":15042,"GAZ_ELEVAT":1548,"DATELASTED":"2016-09-26T00:00:00.000Z","ISCONFLATE":1,"GAZ_CELLID":30682,"POPULATION":0,"SEQUENCE":0,"LOADDATE":"2018-08-01T00:00:00.000Z"}},
{"type":"Feature","geometry":{"type":"Point","coordinates":[-116.4761278004791,32.69838910028727,0,-1.7976931348623157e+308]},"properties":{"OBJECTID":12,"GAZ_ID":270174,"GAZ_NAME":"Cameron Valley","GAZ_FEATUR":"Valley","FEATURE_CO":15050,"GAZ_ELEVAT":970,"DATELASTED":"1899-11-30T00:00:00.000Z","ISCONFLATE":1,"GAZ_CELLID":6886,"POPULATION":0,"SEQUENCE":1,"LOADDATE":"2018-08-01T00:00:00.000Z"}},
{"type":"Feature","geometry":{"type":"Point","coordinates":[-116.48473900046577,32.73172080023551,0,-1.7976931348623157e+308]},"properties":{"OBJECTID":13,"GAZ_ID":1660363,"GAZ_NAME":"Boulder Oaks","GAZ_FEATUR":"Populated Place","FEATURE_CO":99904,"GAZ_ELEVAT":961,"DATELASTED":"2017-01-03T00:00:00.000Z","ISCONFLATE":1,"GAZ_CELLID":6886,"POPULATION":0,"SEQUENCE":0,"LOADDATE":"2018-08-01T00:00:00.000Z"}}
]}